{"type":"FeatureCollection","features":[{"type":"Feature","properties":{"name":"Kfar Etzion","possession":"je","url":"https://peacenow.org.il/en/settlements/settlement58-en","year":1967,"type":"Settlement"},"geometry":{"type":"Point","coordinates":[35.11367045,31.6519848]}},{"type":"Feature","properties":{"name":"Kalia","possession":"je","url":"https://peacenow.org.il/en/settlements/settlement115-en","year":1968,"type":"Settlement"},"geometry":{"type":"Point","coordinates":[35.46665647,31.75186151]}},{"type":"Feature","properties":{"name":"French Hill","possession":"je","url":"https://peacenow.org.il/en/settlements/settlement138-en","year":1968,"type":"Neighborhood"},"geometry":{"type":"Point","coordinates":[35.23731745,31.8031789]}},{"type":"Feature","properties":{"name":"Maalot Dafna","possession":"je","url":"https://peacenow.org.il/en/settlements/settlement143-en","year":1968,"type":"Neighborhood"},"geometry":{"type":"Point","coordinates":[35.22667762,31.79764968]}},{"type":"Feature","properties":{"name":"Ramat Eshkol","possession":"je","url":"https://peacenow.org.il/en/settlements/settlement146-en","year":1968,"type":"Neighborhood"},"geometry":{"type":"Point","coordinates":[35.22564777,31.80079104]}},{"type":"Feature","properties":{"name":"Argaman","possession":"je","url":"https://peacenow.org.il/en/settlements/settlement15-en","year":1968,"type":"Settlement"},"geometry":{"type":"Point","coordinates":[35.52163457,32.17245882]}},{"type":"Feature","properties":{"name":"Mechola","possession":"je","url":"https://peacenow.org.il/en/settlements/settlement67-en","year":1968,"type":"Settlement"},"geometry":{"type":"Point","coordinates":[35.51358461,32.36401148]}},{"type":"Feature","properties":{"name":"Rosh Tzurim","possession":"je","url":"https://peacenow.org.il/en/settlements/settlement119-en","year":1969,"type":"Settlement"},"geometry":{"type":"Point","coordinates":[35.12344888,31.66810902]}},{"type":"Feature","properties":{"name":"Gilo","possession":"je","url":"https://peacenow.org.il/en/settlements/settlement139-en","year":1971,"type":"Neighborhood"},"geometry":{"type":"Point","coordinates":[35.18683285,31.73432718]}},{"type":"Feature","properties":{"name":"Hamra","possession":"je","url":"https://peacenow.org.il/en/settlements/settlement44-en","year":1971,"type":"Settlement"},"geometry":{"type":"Point","coordinates":[35.43543483,32.19901964]}},{"type":"Feature","properties":{"name":"Mitzpe Shalem","possession":"je","url":"https://peacenow.org.il/en/settlements/settlement78-en","year":1971,"type":"Settlement"},"geometry":{"type":"Point","coordinates":[35.40210698,31.56674078]}},{"type":"Feature","properties":{"name":"Kiryat Arba","possession":"je","url":"https://peacenow.org.il/en/settlements/settlement116-en","year":1972,"type":"Settlement"},"geometry":{"type":"Point","coordinates":[35.12150375,31.53415804]}},{"type":"Feature","properties":{"name":"Neve Ya'akov","possession":"je","url":"https://peacenow.org.il/en/settlements/settlement144-en","year":1972,"type":"Neighborhood"},"geometry":{"type":"Point","coordinates":[35.23931775,31.83791383]}},{"type":"Feature","properties":{"name":"Beqa'ot","possession":"je","url":"https://peacenow.org.il/en/settlements/settlement23-en","year":1972,"type":"Settlement"},"geometry":{"type":"Point","coordinates":[35.45721456,32.24094575]}},{"type":"Feature","properties":{"name":"Har Gilo","possession":"je","url":"https://peacenow.org.il/en/settlements/settlement36-en","year":1972,"type":"Settlement"},"geometry":{"type":"Point","coordinates":[35.17042212,31.7224326]}},{"type":"Feature","properties":{"name":"East Talpiyot","possession":"je","url":"https://peacenow.org.il/en/settlements/settlement137-en","year":1973,"type":"Neighborhood"},"geometry":{"type":"Point","coordinates":[35.23256241,31.7487171]}},{"type":"Feature","properties":{"name":"Gitit","possession":"je","url":"https://peacenow.org.il/en/settlements/settlement32-en","year":1973,"type":"Settlement"},"geometry":{"type":"Point","coordinates":[35.39278207,32.10344784]}},{"type":"Feature","properties":{"name":"Mechora","possession":"je","url":"https://peacenow.org.il/en/settlements/settlement68-en","year":1973,"type":"Settlement"},"geometry":{"type":"Point","coordinates":[35.42113322,32.16160751]}},{"type":"Feature","properties":{"name":"El'azar","possession":"je","url":"https://peacenow.org.il/en/settlements/settlement10-en","year":1975,"type":"Settlement"},"geometry":{"type":"Point","coordinates":[35.13898097,31.66333286]}},{"type":"Feature","properties":{"name":"Ofra","possession":"je","url":"https://peacenow.org.il/en/settlements/settlement105-en","year":1975,"type":"Settlement"},"geometry":{"type":"Point","coordinates":[35.26630814,31.94844395]}},{"type":"Feature","properties":{"name":"Metzokey Dragot","possession":"je","url":"https://peacenow.org.il/en/settlements/settlement1079-en","year":1975,"type":"Tourism"},"geometry":{"type":"Point","coordinates":[35.39292522,31.59114887]}},{"type":"Feature","properties":{"name":"Petzael","possession":"je","url":"https://peacenow.org.il/en/settlements/settlement111-en","year":1975,"type":"Settlement"},"geometry":{"type":"Point","coordinates":[35.44304602,32.04437766]}},{"type":"Feature","properties":{"name":"Ma'ale Adumim","possession":"je","url":"https://peacenow.org.il/en/settlements/settlement70-en","year":1975,"type":"Settlement"},"geometry":{"type":"Point","coordinates":[35.3083692,31.77621946]}},{"type":"Feature","properties":{"name":"Ro'i","possession":"je","url":"https://peacenow.org.il/en/settlements/settlement121-en","year":1976,"type":"Settlement"},"geometry":{"type":"Point","coordinates":[35.48392986,32.249727]}},{"type":"Feature","properties":{"name":"Netiv Ha'gdud","possession":"je","url":"https://peacenow.org.il/en/settlements/settlement94-en","year":1976,"type":"Settlement"},"geometry":{"type":"Point","coordinates":[35.44635313,31.98851739]}},{"type":"Feature","properties":{"name":"Kedumim","possession":"je","url":"https://peacenow.org.il/en/settlements/settlement113-en","year":1977,"type":"Settlement"},"geometry":{"type":"Point","coordinates":[35.16019322,32.21687841]}},{"type":"Feature","properties":{"name":"Elkana","possession":"je","url":"https://peacenow.org.il/en/settlements/settlement12-en","year":1977,"type":"Settlement"},"geometry":{"type":"Point","coordinates":[35.0356606,32.11395288]}},{"type":"Feature","properties":{"name":"Reihan","possession":"je","url":"https://peacenow.org.il/en/settlements/settlement124-en","year":1977,"type":"Settlement"},"geometry":{"type":"Point","coordinates":[35.13704204,32.47003656]}},{"type":"Feature","properties":{"name":"Rimonim","possession":"je","url":"https://peacenow.org.il/en/settlements/settlement125-en","year":1977,"type":"Settlement"},"geometry":{"type":"Point","coordinates":[35.34085312,31.93379255]}},{"type":"Feature","properties":{"name":"Shavei Shomron","possession":"je","url":"https://peacenow.org.il/en/settlements/settlement127-en","year":1977,"type":"Settlement"},"geometry":{"type":"Point","coordinates":[35.18107329,32.26455064]}},{"type":"Feature","properties":{"name":"Tko'a","possession":"je","url":"https://peacenow.org.il/en/settlements/settlement136-en","year":1977,"type":"Settlement"},"geometry":{"type":"Point","coordinates":[35.232602,31.64457489]}},{"type":"Feature","properties":{"name":"Beit El","possession":"je","url":"https://peacenow.org.il/en/settlements/settlement18-en","year":1977,"type":"Settlement"},"geometry":{"type":"Point","coordinates":[35.22779042,31.94230381]}},{"type":"Feature","properties":{"name":"Beit Horon","possession":"je","url":"https://peacenow.org.il/en/settlements/settlement21-en","year":1977,"type":"Settlement"},"geometry":{"type":"Point","coordinates":[35.12968886,31.87640618]}},{"type":"Feature","properties":{"name":"Giv'on","possession":"je","url":"https://peacenow.org.il/en/settlements/settlement28-en","year":1977,"type":"Settlement"},"geometry":{"type":"Point","coordinates":[35.1714468,31.84915847]}},{"type":"Feature","properties":{"name":"Halamish","possession":"je","url":"https://peacenow.org.il/en/settlements/settlement42-en","year":1977,"type":"Settlement"},"geometry":{"type":"Point","coordinates":[35.12687539,32.00752773]}},{"type":"Feature","properties":{"name":"Kochav Ha'shachar","possession":"je","url":"https://peacenow.org.il/en/settlements/settlement54-en","year":1977,"type":"Settlement"},"geometry":{"type":"Point","coordinates":[35.3491257,31.95564972]}},{"type":"Feature","properties":{"name":"Migdal Oz","possession":"je","url":"https://peacenow.org.il/en/settlements/settlement64-en","year":1977,"type":"Settlement"},"geometry":{"type":"Point","coordinates":[35.1438564,31.64018289]}},{"type":"Feature","properties":{"name":"Almog","possession":"je","url":"https://peacenow.org.il/en/settlements/settlement9-en","year":1977,"type":"Settlement"},"geometry":{"type":"Point","coordinates":[35.46157972,31.78780895]}},{"type":"Feature","properties":{"name":"Niran","possession":"je","url":"https://peacenow.org.il/en/settlements/settlement90-en","year":1977,"type":"Settlement"},"geometry":{"type":"Point","coordinates":[35.46157894,31.96958288]}},{"type":"Feature","properties":{"name":"Sal'it","possession":"je","url":"https://peacenow.org.il/en/settlements/settlement96-en","year":1977,"type":"Settlement"},"geometry":{"type":"Point","coordinates":[35.04743287,32.24276113]}},{"type":"Feature","properties":{"name":"Karnei Shomron","possession":"je","url":"https://peacenow.org.il/en/settlements/settlement118-en","year":1978,"type":"Settlement"},"geometry":{"type":"Point","coordinates":[35.10029194,32.17408791]}},{"type":"Feature","properties":{"name":"Tomer","possession":"je","url":"https://peacenow.org.il/en/settlements/settlement134-en","year":1978,"type":"Settlement"},"geometry":{"type":"Point","coordinates":[35.439025,32.01829769]}},{"type":"Feature","properties":{"name":"Ariel","possession":"je","url":"https://peacenow.org.il/en/settlements/settlement16-en","year":1978,"type":"Settlement"},"geometry":{"type":"Point","coordinates":[35.18213742,32.10281854]}},{"type":"Feature","properties":{"name":"Hebron Settlement","possession":"je","url":"https://peacenow.org.il/en/settlements/settlement39-en","year":1978,"type":"Settlement"},"geometry":{"type":"Point","coordinates":[35.10711214,31.5237824]}},{"type":"Feature","properties":{"name":"Kfar Tapuah","possession":"je","url":"https://peacenow.org.il/en/settlements/settlement59-en","year":1978,"type":"Settlement"},"geometry":{"type":"Point","coordinates":[35.24266004,32.11881227]}},{"type":"Feature","properties":{"name":"Mevo Dotan","possession":"je","url":"https://peacenow.org.il/en/settlements/settlement62-en","year":1978,"type":"Settlement"},"geometry":{"type":"Point","coordinates":[35.17585426,32.41991935]}},{"type":"Feature","properties":{"name":"Mitzpe Yericho","possession":"je","url":"https://peacenow.org.il/en/settlements/settlement77-en","year":1978,"type":"Settlement"},"geometry":{"type":"Point","coordinates":[35.39737716,31.81931759]}},{"type":"Feature","properties":{"name":"Shilo Industrial Area","possession":"je","url":"https://peacenow.org.il/en/settlements/settlement1080-en","year":1979,"type":"Industrial zone"},"geometry":{"type":"Point","coordinates":[35.30572226,32.04613649]}},{"type":"Feature","properties":{"name":"Shadmot Mehola","possession":"je","url":"https://peacenow.org.il/en/settlements/settlement128-en","year":1979,"type":"Settlement"},"geometry":{"type":"Point","coordinates":[35.53439969,32.34809519]}},{"type":"Feature","properties":{"name":"Shilo","possession":"je","url":"https://peacenow.org.il/en/settlements/settlement129-en","year":1979,"type":"Settlement"},"geometry":{"type":"Point","coordinates":[35.3012484,32.05384594]}},{"type":"Feature","properties":{"name":"Kfar Adumim","possession":"je","url":"https://peacenow.org.il/en/settlements/settlement56-en","year":1979,"type":"Settlement"},"geometry":{"type":"Point","coordinates":[35.33870169,31.82366038]}},{"type":"Feature","properties":{"name":"Elon More","possession":"je","url":"https://peacenow.org.il/en/settlements/settlement7-en","year":1979,"type":"Settlement"},"geometry":{"type":"Point","coordinates":[35.34560467,32.2281619]}},{"type":"Feature","properties":{"name":"Efrat","possession":"je","url":"https://peacenow.org.il/en/settlements/settlement14-en","year":1980,"type":"Settlement"},"geometry":{"type":"Point","coordinates":[35.15930072,31.66613636]}},{"type":"Feature","properties":{"name":"Beit Ha'arava","possession":"je","url":"https://peacenow.org.il/en/settlements/settlement20-en","year":1980,"type":"Settlement"},"geometry":{"type":"Point","coordinates":[35.47871149,31.80819915]}},{"type":"Feature","properties":{"name":"Giv'on Ha'hadasha","possession":"je","url":"https://peacenow.org.il/en/settlements/settlement29-en","year":1980,"type":"Settlement"},"geometry":{"type":"Point","coordinates":[35.1581084,31.84866362]}},{"type":"Feature","properties":{"name":"Vered Yericho","possession":"je","url":"https://peacenow.org.il/en/settlements/settlement38-en","year":1980,"type":"Settlement"},"geometry":{"type":"Point","coordinates":[35.43185108,31.82712151]}},{"type":"Feature","properties":{"name":"Chemdat","possession":"je","url":"https://peacenow.org.il/en/settlements/settlement43-en","year":1980,"type":"Settlement"},"geometry":{"type":"Point","coordinates":[35.52676747,32.25146043]}},{"type":"Feature","properties":{"name":"Yafit","possession":"je","url":"https://peacenow.org.il/en/settlements/settlement51-en","year":1980,"type":"Settlement"},"geometry":{"type":"Point","coordinates":[35.47184593,32.06151776]}},{"type":"Feature","properties":{"name":"Ma'ale Shomron","possession":"je","url":"https://peacenow.org.il/en/settlements/settlement75-en","year":1980,"type":"Settlement"},"geometry":{"type":"Point","coordinates":[35.0721667,32.16343865]}},{"type":"Feature","properties":{"name":"Enav","possession":"je","url":"https://peacenow.org.il/en/settlements/settlement104-en","year":1981,"type":"Settlement"},"geometry":{"type":"Point","coordinates":[35.12641802,32.2866117]}},{"type":"Feature","properties":{"name":"Psagot","possession":"je","url":"https://peacenow.org.il/en/settlements/settlement110-en","year":1981,"type":"Settlement"},"geometry":{"type":"Point","coordinates":[35.22705529,31.89769314]}},{"type":"Feature","properties":{"name":"Shaked","possession":"je","url":"https://peacenow.org.il/en/settlements/settlement133-en","year":1981,"type":"Settlement"},"geometry":{"type":"Point","coordinates":[35.16821361,32.47417247]}},{"type":"Feature","properties":{"name":"Beit Arye","possession":"je","url":"https://peacenow.org.il/en/settlements/settlement19-en","year":1981,"type":"Settlement"},"geometry":{"type":"Point","coordinates":[35.05187407,32.03661072]}},{"type":"Feature","properties":{"name":"Barqan","possession":"je","url":"https://peacenow.org.il/en/settlements/settlement25-en","year":1981,"type":"Settlement"},"geometry":{"type":"Point","coordinates":[35.10590196,32.11055916]}},{"type":"Feature","properties":{"name":"Matityahu","possession":"je","url":"https://peacenow.org.il/en/settlements/settlement337-en","year":1981,"type":"Settlement"},"geometry":{"type":"Point","coordinates":[35.03210438,31.92972543]}},{"type":"Feature","properties":{"name":"Nili","possession":"je","url":"https://peacenow.org.il/en/settlements/settlement341-en","year":1981,"type":"Settlement"},"geometry":{"type":"Point","coordinates":[35.04649534,31.96357568]}},{"type":"Feature","properties":{"name":"Hinanit","possession":"je","url":"https://peacenow.org.il/en/settlements/settlement41-en","year":1981,"type":"Settlement"},"geometry":{"type":"Point","coordinates":[35.17063852,32.48045024]}},{"type":"Feature","properties":{"name":"Yakir","possession":"je","url":"https://peacenow.org.il/en/settlements/settlement53-en","year":1981,"type":"Settlement"},"geometry":{"type":"Point","coordinates":[35.11396915,32.1504041]}},{"type":"Feature","properties":{"name":"Carmel","possession":"je","url":"https://peacenow.org.il/en/settlements/settlement61-en","year":1981,"type":"Settlement"},"geometry":{"type":"Point","coordinates":[35.18577536,31.43161558]}},{"type":"Feature","properties":{"name":"Ma'on","possession":"je","url":"https://peacenow.org.il/en/settlements/settlement69-en","year":1981,"type":"Settlement"},"geometry":{"type":"Point","coordinates":[35.16401226,31.4118715]}},{"type":"Feature","properties":{"name":"Ma'ale Michmash","possession":"je","url":"https://peacenow.org.il/en/settlements/settlement73-en","year":1981,"type":"Settlement"},"geometry":{"type":"Point","coordinates":[35.30887686,31.87700455]}},{"type":"Feature","properties":{"name":"Ma'ale Amos","possession":"je","url":"https://peacenow.org.il/en/settlements/settlement74-en","year":1981,"type":"Settlement"},"geometry":{"type":"Point","coordinates":[35.22079949,31.60635813]}},{"type":"Feature","properties":{"name":"Ateret","possession":"je","url":"https://peacenow.org.il/en/settlements/settlement99-en","year":1981,"type":"Settlement"},"geometry":{"type":"Point","coordinates":[35.17908033,31.99953298]}},{"type":"Feature","properties":{"name":"Alei Zahav","possession":"je","url":"https://peacenow.org.il/en/settlements/settlement101-en","year":1982,"type":"Settlement"},"geometry":{"type":"Point","coordinates":[35.06683299,32.07088857]}},{"type":"Feature","properties":{"name":"Almon","possession":"je","url":"https://peacenow.org.il/en/settlements/settlement102-en","year":1982,"type":"Settlement"},"geometry":{"type":"Point","coordinates":[35.29419899,31.82825267]}},{"type":"Feature","properties":{"name":"Pnei Hever","possession":"je","url":"https://peacenow.org.il/en/settlements/settlement109-en","year":1982,"type":"Settlement"},"geometry":{"type":"Point","coordinates":[35.16601462,31.48617698]}},{"type":"Feature","properties":{"name":"Telem","possession":"je","url":"https://peacenow.org.il/en/settlements/settlement135-en","year":1982,"type":"Settlement"},"geometry":{"type":"Point","coordinates":[35.03074528,31.56426754]}},{"type":"Feature","properties":{"name":"Eshkolot","possession":"je","url":"https://peacenow.org.il/en/settlements/settlement17-en","year":1982,"type":"Settlement"},"geometry":{"type":"Point","coordinates":[34.90512082,31.39115804]}},{"type":"Feature","properties":{"name":"Kfar Eldad","possession":"je","url":"https://peacenow.org.il/en/settlements/settlement334-en","year":1982,"type":"Settlement"},"geometry":{"type":"Point","coordinates":[35.25234199,31.65321511]}},{"type":"Feature","properties":{"name":"Hermesh","possession":"je","url":"https://peacenow.org.il/en/settlements/settlement45-en","year":1982,"type":"Settlement"},"geometry":{"type":"Point","coordinates":[35.11843675,32.42324688]}},{"type":"Feature","properties":{"name":"Neve Daniel","possession":"je","url":"https://peacenow.org.il/en/settlements/settlement83-en","year":1982,"type":"Settlement"},"geometry":{"type":"Point","coordinates":[35.14299251,31.67851776]}},{"type":"Feature","properties":{"name":"Nokdim","possession":"je","url":"https://peacenow.org.il/en/settlements/settlement86-en","year":1982,"type":"Settlement"},"geometry":{"type":"Point","coordinates":[35.2491648,31.65189481]}},{"type":"Feature","properties":{"name":"Nirit","possession":"je","url":"https://peacenow.org.il/en/settlements/settlement89-en","year":1982,"type":"Neighborhood"},"geometry":{"type":"Point","coordinates":[34.98632049,32.14926393]}},{"type":"Feature","properties":{"name":"Na'ama","possession":"je","url":"https://peacenow.org.il/en/settlements/settlement92-en","year":1982,"type":"Settlement"},"geometry":{"type":"Point","coordinates":[35.46648339,31.91114425]}},{"type":"Feature","properties":{"name":"Immanuel","possession":"je","url":"https://peacenow.org.il/en/settlements/settlement103-en","year":1983,"type":"Settlement"},"geometry":{"type":"Point","coordinates":[35.13945238,32.16200802]}},{"type":"Feature","properties":{"name":"Imanuel Industrial Area","possession":"je","url":"https://peacenow.org.il/en/settlements/settlement1061-en","year":1983,"type":"Industrial zone"},"geometry":{"type":"Point","coordinates":[35.15225528,32.17421027]}},{"type":"Feature","properties":{"name":"Otniel","possession":"je","url":"https://peacenow.org.il/en/settlements/settlement107-en","year":1983,"type":"Settlement"},"geometry":{"type":"Point","coordinates":[35.03104885,31.4393844]}},{"type":"Feature","properties":{"name":"Alfei Menashe","possession":"je","url":"https://peacenow.org.il/en/settlements/settlement11-en","year":1983,"type":"Settlement"},"geometry":{"type":"Point","coordinates":[35.01511574,32.17202836]}},{"type":"Feature","properties":{"name":"Kiryat Netafim","possession":"je","url":"https://peacenow.org.il/en/settlements/settlement117-en","year":1983,"type":"Settlement"},"geometry":{"type":"Point","coordinates":[35.11235567,32.11687765]}},{"type":"Feature","properties":{"name":"Asfar","possession":"je","url":"https://peacenow.org.il/en/settlements/settlement13-en","year":1983,"type":"Settlement"},"geometry":{"type":"Point","coordinates":[35.18840979,31.58768003]}},{"type":"Feature","properties":{"name":"Sha'arei Tikva","possession":"je","url":"https://peacenow.org.il/en/settlements/settlement132-en","year":1983,"type":"Settlement"},"geometry":{"type":"Point","coordinates":[35.02573753,32.12335958]}},{"type":"Feature","properties":{"name":"Ovnat","possession":"je","url":"https://peacenow.org.il/en/settlements/settlement2-en","year":1983,"type":"Settlement"},"geometry":{"type":"Point","coordinates":[35.43724915,31.6790863]}},{"type":"Feature","properties":{"name":"Bracha","possession":"je","url":"https://peacenow.org.il/en/settlements/settlement24-en","year":1983,"type":"Settlement"},"geometry":{"type":"Point","coordinates":[35.2611545,32.19309253]}},{"type":"Feature","properties":{"name":"Givat Ze'ev","possession":"je","url":"https://peacenow.org.il/en/settlements/settlement31-en","year":1983,"type":"Settlement"},"geometry":{"type":"Point","coordinates":[35.16776816,31.86003829]}},{"type":"Feature","properties":{"name":"Dolev","possession":"je","url":"https://peacenow.org.il/en/settlements/settlement34-en","year":1983,"type":"Settlement"},"geometry":{"type":"Point","coordinates":[35.13460392,31.92755515]}},{"type":"Feature","properties":{"name":"Tene","possession":"je","url":"https://peacenow.org.il/en/settlements/settlement49-en","year":1983,"type":"Settlement"},"geometry":{"type":"Point","coordinates":[34.9566056,31.37428542]}},{"type":"Feature","properties":{"name":"Yitzhar","possession":"je","url":"https://peacenow.org.il/en/settlements/settlement52-en","year":1983,"type":"Settlement"},"geometry":{"type":"Point","coordinates":[35.23879474,32.16472005]}},{"type":"Feature","properties":{"name":"Migdalim","possession":"je","url":"https://peacenow.org.il/en/settlements/settlement65-en","year":1983,"type":"Settlement"},"geometry":{"type":"Point","coordinates":[35.34401525,32.09140351]}},{"type":"Feature","properties":{"name":"Ma'ale Levona","possession":"je","url":"https://peacenow.org.il/en/settlements/settlement72-en","year":1983,"type":"Settlement"},"geometry":{"type":"Point","coordinates":[35.24177769,32.05568587]}},{"type":"Feature","properties":{"name":"Yatir (aka Metzadot Yehuda)","possession":"je","url":"https://peacenow.org.il/en/settlements/settlement76-en","year":1983,"type":"Settlement"},"geometry":{"type":"Point","coordinates":[35.11049826,31.36291815]}},{"type":"Feature","properties":{"name":"Suseya","possession":"je","url":"https://peacenow.org.il/en/settlements/settlement95-en","year":1983,"type":"Settlement"},"geometry":{"type":"Point","coordinates":[35.11153955,31.39062241]}},{"type":"Feature","properties":{"name":"Eli","possession":"je","url":"https://peacenow.org.il/en/settlements/settlement100-en","year":1984,"type":"Settlement"},"geometry":{"type":"Point","coordinates":[35.27122951,32.07458745]}},{"type":"Feature","properties":{"name":"Pedu'el","possession":"je","url":"https://peacenow.org.il/en/settlements/settlement108-en","year":1984,"type":"Settlement"},"geometry":{"type":"Point","coordinates":[35.05279555,32.06227284]}},{"type":"Feature","properties":{"name":"Geva Binyamin","possession":"je","url":"https://peacenow.org.il/en/settlements/settlement27-en","year":1984,"type":"Settlement"},"geometry":{"type":"Point","coordinates":[35.28106839,31.84917431]}},{"type":"Feature","properties":{"name":"Adora","possession":"je","url":"https://peacenow.org.il/en/settlements/settlement3-en","year":1984,"type":"Settlement"},"geometry":{"type":"Point","coordinates":[35.01774287,31.55309421]}},{"type":"Feature","properties":{"name":"Haggai","possession":"je","url":"https://peacenow.org.il/en/settlements/settlement40-en","year":1984,"type":"Settlement"},"geometry":{"type":"Point","coordinates":[35.07815472,31.49010554]}},{"type":"Feature","properties":{"name":"Itamar","possession":"je","url":"https://peacenow.org.il/en/settlements/settlement5-en","year":1984,"type":"Settlement"},"geometry":{"type":"Point","coordinates":[35.34500707,32.16349216]}},{"type":"Feature","properties":{"name":"Karmei Tzur","possession":"je","url":"https://peacenow.org.il/en/settlements/settlement60-en","year":1984,"type":"Settlement"},"geometry":{"type":"Point","coordinates":[35.10046135,31.60923174]}},{"type":"Feature","properties":{"name":"Nahliel","possession":"je","url":"https://peacenow.org.il/en/settlements/settlement87-en","year":1984,"type":"Settlement"},"geometry":{"type":"Point","coordinates":[35.14054523,31.97408363]}},{"type":"Feature","properties":{"name":"Etz Efraim","possession":"je","url":"https://peacenow.org.il/en/settlements/settlement106-en","year":1985,"type":"Settlement"},"geometry":{"type":"Point","coordinates":[35.04643849,32.11980662]}},{"type":"Feature","properties":{"name":"Ganei Modiin","possession":"je","url":"https://peacenow.org.il/en/settlements/settlement1078-en","year":1985,"type":"Settlement"},"geometry":{"type":"Point","coordinates":[35.01581564,31.92964808]}},{"type":"Feature","properties":{"name":"Keidar","possession":"je","url":"https://peacenow.org.il/en/settlements/settlement114-en","year":1985,"type":"Settlement"},"geometry":{"type":"Point","coordinates":[35.31126513,31.75386813]}},{"type":"Feature","properties":{"name":"Shim'a","possession":"je","url":"https://peacenow.org.il/en/settlements/settlement130-en","year":1985,"type":"Settlement"},"geometry":{"type":"Point","coordinates":[35.01280854,31.38756483]}},{"type":"Feature","properties":{"name":"Pisgat Ze'ev","possession":"je","url":"https://peacenow.org.il/en/settlements/settlement145-en","year":1985,"type":"Neighborhood"},"geometry":{"type":"Point","coordinates":[35.24558349,31.81993828]}},{"type":"Feature","properties":{"name":"Beitar Illit","possession":"je","url":"https://peacenow.org.il/en/settlements/settlement22-en","year":1985,"type":"Settlement"},"geometry":{"type":"Point","coordinates":[35.11667943,31.70145804]}},{"type":"Feature","properties":{"name":"Old Keidar","possession":"je","url":"https://peacenow.org.il/en/settlements/settlement347-en","year":1985,"type":"Outpost"},"geometry":{"type":"Point","coordinates":[35.30157299,31.74606193]}},{"type":"Feature","properties":{"name":"Oranit","possession":"je","url":"https://peacenow.org.il/en/settlements/settlement4-en","year":1985,"type":"Settlement"},"geometry":{"type":"Point","coordinates":[34.98951147,32.12974704]}},{"type":"Feature","properties":{"name":"Hashmonaim","possession":"je","url":"https://peacenow.org.il/en/settlements/settlement46-en","year":1985,"type":"Settlement"},"geometry":{"type":"Point","coordinates":[35.01915275,31.93100365]}},{"type":"Feature","properties":{"name":"Kochav Ya'akov","possession":"je","url":"https://peacenow.org.il/en/settlements/settlement55-en","year":1985,"type":"Settlement"},"geometry":{"type":"Point","coordinates":[35.24316262,31.87988334]}},{"type":"Feature","properties":{"name":"Har Adar","possession":"je","url":"https://peacenow.org.il/en/settlements/settlement35-en","year":1986,"type":"Settlement"},"geometry":{"type":"Point","coordinates":[35.12877782,31.8256983]}},{"type":"Feature","properties":{"name":"Nofim","possession":"je","url":"https://peacenow.org.il/en/settlements/settlement85-en","year":1987,"type":"Settlement"},"geometry":{"type":"Point","coordinates":[35.10164892,32.15391939]}},{"type":"Feature","properties":{"name":"Na'ale","possession":"je","url":"https://peacenow.org.il/en/settlements/settlement91-en","year":1988,"type":"Settlement"},"geometry":{"type":"Point","coordinates":[35.06361274,31.96314263]}},{"type":"Feature","properties":{"name":"Tzofim","possession":"je","url":"https://peacenow.org.il/en/settlements/settlement112-en","year":1989,"type":"Settlement"},"geometry":{"type":"Point","coordinates":[35.01006309,32.19875159]}},{"type":"Feature","properties":{"name":"Shani","possession":"je","url":"https://peacenow.org.il/en/settlements/settlement131-en","year":1989,"type":"Settlement"},"geometry":{"type":"Point","coordinates":[35.07003298,31.35812758]}},{"type":"Feature","properties":{"name":"Bat Ayin","possession":"je","url":"https://peacenow.org.il/en/settlements/settlement26-en","year":1989,"type":"Settlement"},"geometry":{"type":"Point","coordinates":[35.10185813,31.65970856]}},{"type":"Feature","properties":{"name":"Talmon","possession":"je","url":"https://peacenow.org.il/en/settlements/settlement48-en","year":1989,"type":"Settlement"},"geometry":{"type":"Point","coordinates":[35.14615557,31.94351374]}},{"type":"Feature","properties":{"name":"Ofarim","possession":"je","url":"https://peacenow.org.il/en/settlements/settlement98-en","year":1989,"type":"Settlement"},"geometry":{"type":"Point","coordinates":[35.04457572,32.01873022]}},{"type":"Feature","properties":{"name":"Avnei Hefetz","possession":"je","url":"https://peacenow.org.il/en/settlements/settlement1-en","year":1990,"type":"Settlement"},"geometry":{"type":"Point","coordinates":[35.07717783,32.28625976]}},{"type":"Feature","properties":{"name":"Genesis Land","possession":"je","url":"https://peacenow.org.il/en/settlements/settlement1092-en","year":1990,"type":"Tourism"},"geometry":{"type":"Point","coordinates":[35.35294454,31.82804294]}},{"type":"Feature","properties":{"name":"Alon","possession":"je","url":"https://peacenow.org.il/en/settlements/settlement6-en","year":1990,"type":"Settlement"},"geometry":{"type":"Point","coordinates":[35.35438495,31.83296525]}},{"type":"Feature","properties":{"name":"Beit Orot","possession":"je","url":"https://peacenow.org.il/en/settlements/settlement1042-en","year":1991,"type":"Settlement"},"geometry":{"type":"Point","coordinates":[35.24604949,31.78535729]}},{"type":"Feature","properties":{"name":"Silwan Settlement","possession":"je","url":"https://peacenow.org.il/en/settlements/settlement1046-en","year":1991,"type":"Settlement"},"geometry":{"type":"Point","coordinates":[35.23515178,31.77358968]}},{"type":"Feature","properties":{"name":"Revava","possession":"je","url":"https://peacenow.org.il/en/settlements/settlement120-en","year":1991,"type":"Settlement"},"geometry":{"type":"Point","coordinates":[35.12838664,32.11819205]}},{"type":"Feature","properties":{"name":"Rechelim","possession":"je","url":"https://peacenow.org.il/en/settlements/settlement123-en","year":1991,"type":"Settlement"},"geometry":{"type":"Point","coordinates":[35.254062,32.10118741]}},{"type":"Feature","properties":{"name":"Shvut Rachel","possession":"je","url":"https://peacenow.org.il/en/settlements/settlement126-en","year":1991,"type":"Settlement"},"geometry":{"type":"Point","coordinates":[35.31154432,32.05377019]}},{"type":"Feature","properties":{"name":"Giv'at Ha-Matos","possession":"je","url":"https://peacenow.org.il/en/settlements/settlement140-en","year":1991,"type":"Neighborhood"},"geometry":{"type":"Point","coordinates":[35.20692377,31.73816278]}},{"type":"Feature","properties":{"name":"Har Homa","possession":"je","url":"https://peacenow.org.il/en/settlements/settlement141-en","year":1991,"type":"Neighborhood"},"geometry":{"type":"Point","coordinates":[35.22267007,31.72426984]}},{"type":"Feature","properties":{"name":"Nerya","possession":"je","url":"https://peacenow.org.il/en/settlements/settlement302-en","year":1991,"type":"Settlement"},"geometry":{"type":"Point","coordinates":[35.12720067,31.95277712]}},{"type":"Feature","properties":{"name":"Tal Menashe","possession":"je","url":"https://peacenow.org.il/en/settlements/settlement47-en","year":1992,"type":"Settlement"},"geometry":{"type":"Point","coordinates":[35.15859582,32.48244383]}},{"type":"Feature","properties":{"name":"Nofei Prat","possession":"je","url":"https://peacenow.org.il/en/settlements/settlement84-en","year":1992,"type":"Settlement"},"geometry":{"type":"Point","coordinates":[35.32067338,31.82283707]}},{"type":"Feature","properties":{"name":"Ramat Shlomo","possession":"je","url":"https://peacenow.org.il/en/settlements/settlement147-en","year":1994,"type":"Neighborhood"},"geometry":{"type":"Point","coordinates":[35.22033115,31.81020668]}},{"type":"Feature","properties":{"name":"Hanekuda","possession":"je","url":"https://peacenow.org.il/en/settlements/settlement255-en","year":1996,"type":"Outpost"},"geometry":{"type":"Point","coordinates":[35.31916645,32.16944104]}},{"type":"Feature","properties":{"name":"Har Hemed","possession":"je","url":"https://peacenow.org.il/en/settlements/settlement257-en","year":1996,"type":"Outpost"},"geometry":{"type":"Point","coordinates":[35.15216362,32.23032205]}},{"type":"Feature","properties":{"name":"Nof Nesher","possession":"je","url":"https://peacenow.org.il/en/settlements/settlement300-en","year":1996,"type":"Outpost"},"geometry":{"type":"Point","coordinates":[35.12150381,31.36583025]}},{"type":"Feature","properties":{"name":"Modi'in Ilit","possession":"je","url":"https://peacenow.org.il/en/settlements/settlement66-en","year":1996,"type":"Settlement"},"geometry":{"type":"Point","coordinates":[35.04651268,31.9314544]}},{"type":"Feature","properties":{"name":"Ahiya","possession":"je","url":"https://peacenow.org.il/en/settlements/settlement224-en","year":1997,"type":"Outpost"},"geometry":{"type":"Point","coordinates":[35.33596674,32.06533255]}},{"type":"Feature","properties":{"name":"Horesh Yaron","possession":"je","url":"https://peacenow.org.il/en/settlements/settlement265-en","year":1997,"type":"Outpost legalized as a neighborhood"},"geometry":{"type":"Point","coordinates":[35.13996371,31.94551035]}},{"type":"Feature","properties":{"name":"Haresha","possession":"je","url":"https://peacenow.org.il/en/settlements/settlement267-en","year":1997,"type":"Settlement"},"geometry":{"type":"Point","coordinates":[35.14615557,31.94351374]}},{"type":"Feature","properties":{"name":"Ma'ale Yisrael","possession":"je","url":"https://peacenow.org.il/en/settlements/settlement283-en","year":1997,"type":"Outpost"},"geometry":{"type":"Point","coordinates":[35.10471058,32.11521658]}},{"type":"Feature","properties":{"name":"Gva'ot","possession":"je","url":"https://peacenow.org.il/en/settlements/settlement30-en","year":1997,"type":"Settlement"},"geometry":{"type":"Point","coordinates":[35.10062307,31.67951817]}},{"type":"Feature","properties":{"name":"Amona","possession":"je","url":"https://peacenow.org.il/en/settlements/settlement307-en","year":1997,"type":"Evicted Outpost"},"geometry":{"type":"Point","coordinates":[35.27765931,31.95346336]}},{"type":"Feature","properties":{"name":"Ras El-Amud Settlement","possession":"je","url":"https://peacenow.org.il/en/settlements/settlement1045-en","year":1998,"type":"Settlement"},"geometry":{"type":"Point","coordinates":[35.24071016,31.77214048]}},{"type":"Feature","properties":{"name":"Bat Ayin East","possession":"je","url":"https://peacenow.org.il/en/settlements/settlement235-en","year":1998,"type":"Outpost"},"geometry":{"type":"Point","coordinates":[35.10835932,31.65353183]}},{"type":"Feature","properties":{"name":"Hill 836","possession":"je","url":"https://peacenow.org.il/en/settlements/settlement241-en","year":1998,"type":"Outpost"},"geometry":{"type":"Point","coordinates":[35.36620503,32.16365888]}},{"type":"Feature","properties":{"name":"Hill 851","possession":"je","url":"https://peacenow.org.il/en/settlements/settlement242-en","year":1998,"type":"Outpost"},"geometry":{"type":"Point","coordinates":[35.33758258,32.16611341]}},{"type":"Feature","properties":{"name":"Gva'ot Olam","possession":"je","url":"https://peacenow.org.il/en/settlements/settlement243-en","year":1998,"type":"Outpost"},"geometry":{"type":"Point","coordinates":[35.35230916,32.15969694]}},{"type":"Feature","properties":{"name":"Givat Hahish","possession":"je","url":"https://peacenow.org.il/en/settlements/settlement246-en","year":1998,"type":"Outpost"},"geometry":{"type":"Point","coordinates":[35.13167675,31.65526382]}},{"type":"Feature","properties":{"name":"Givat Harel","possession":"je","url":"https://peacenow.org.il/en/settlements/settlement247-en","year":1998,"type":"Outpost"},"geometry":{"type":"Point","coordinates":[35.27405206,32.05897275]}},{"type":"Feature","properties":{"name":"Hahar","possession":"je","url":"https://peacenow.org.il/en/settlements/settlement252-en","year":1998,"type":"Outpost"},"geometry":{"type":"Point","coordinates":[35.08441872,32.28712004]}},{"type":"Feature","properties":{"name":"Hayovel","possession":"je","url":"https://peacenow.org.il/en/settlements/settlement254-en","year":1998,"type":"Outpost"},"geometry":{"type":"Point","coordinates":[35.28481736,32.07060166]}},{"type":"Feature","properties":{"name":"Lehavat Yitzhar","possession":"je","url":"https://peacenow.org.il/en/settlements/settlement273-en","year":1998,"type":"Outpost"},"geometry":{"type":"Point","coordinates":[35.24659665,32.16407003]}},{"type":"Feature","properties":{"name":"Mitzpe Yair","possession":"je","url":"https://peacenow.org.il/en/settlements/settlement289-en","year":1998,"type":"Outpost"},"geometry":{"type":"Point","coordinates":[35.1358917,31.38431405]}},{"type":"Feature","properties":{"name":"Nof Harim","possession":"je","url":"https://peacenow.org.il/en/settlements/settlement299-en","year":1998,"type":"Outpost"},"geometry":{"type":"Point","coordinates":[35.27974849,32.07608362]}},{"type":"Feature","properties":{"name":"Adei Ad","possession":"je","url":"https://peacenow.org.il/en/settlements/settlement306-en","year":1998,"type":"Outpost"},"geometry":{"type":"Point","coordinates":[35.33524627,32.04138533]}},{"type":"Feature","properties":{"name":"Sde Bar","possession":"je","url":"https://peacenow.org.il/en/settlements/settlement317-en","year":1998,"type":"Outpost legalized as a neighborhood"},"geometry":{"type":"Point","coordinates":[35.24495858,31.65909371]}},{"type":"Feature","properties":{"name":"Bracha West","possession":"je","url":"https://peacenow.org.il/en/settlements/settlement352-en","year":1998,"type":"Outpost"},"geometry":{"type":"Point","coordinates":[35.25532062,32.19300276]}},{"type":"Feature","properties":{"name":"Har Shmuel","possession":"je","url":"https://peacenow.org.il/en/settlements/settlement37-en","year":1998,"type":"Settlement"},"geometry":{"type":"Point","coordinates":[35.17093865,31.8355659]}},{"type":"Feature","properties":{"name":"Kfar Ha'oranim","possession":"je","url":"https://peacenow.org.il/en/settlements/settlement57-en","year":1998,"type":"Settlement"},"geometry":{"type":"Point","coordinates":[35.03854103,31.91896817]}},{"type":"Feature","properties":{"name":"Ahavat Hayim","possession":"je","url":"https://peacenow.org.il/en/settlements/settlement222-en","year":1999,"type":"Outpost"},"geometry":{"type":"Point","coordinates":[35.34173764,31.95795486]}},{"type":"Feature","properties":{"name":"Shalhevet Farm","possession":"je","url":"https://peacenow.org.il/en/settlements/settlement223-en","year":1999,"type":"Outpost"},"geometry":{"type":"Point","coordinates":[35.22421405,32.17219692]}},{"type":"Feature","properties":{"name":"Ibei Hanahal","possession":"je","url":"https://peacenow.org.il/en/settlements/settlement225-en","year":1999,"type":"Outpost"},"geometry":{"type":"Point","coordinates":[35.22931064,31.59721749]}},{"type":"Feature","properties":{"name":"Alonei Shilo","possession":"je","url":"https://peacenow.org.il/en/settlements/settlement226-en","year":1999,"type":"Outpost"},"geometry":{"type":"Point","coordinates":[35.1201066,32.16291218]}},{"type":"Feature","properties":{"name":"Elisha Preparatory","possession":"je","url":"https://peacenow.org.il/en/settlements/settlement227-en","year":1999,"type":"Outpost legalized as a neighborhood"},"geometry":{"type":"Point","coordinates":[35.13839522,32.01127218]}},{"type":"Feature","properties":{"name":"Bruchin","possession":"je","url":"https://peacenow.org.il/en/settlements/settlement233-en","year":1999,"type":"Settlement"},"geometry":{"type":"Point","coordinates":[35.08940269,32.08084479]}},{"type":"Feature","properties":{"name":"Givat Arnon (Hill 777)","possession":"je","url":"https://peacenow.org.il/en/settlements/settlement239-en","year":1999,"type":"Outpost"},"geometry":{"type":"Point","coordinates":[35.37113721,32.15440663]}},{"type":"Feature","properties":{"name":"Hill 782","possession":"je","url":"https://peacenow.org.il/en/settlements/settlement240-en","year":1999,"type":"Outpost"},"geometry":{"type":"Point","coordinates":[35.33270744,32.15873627]}},{"type":"Feature","properties":{"name":"Mor Farm","possession":"je","url":"https://peacenow.org.il/en/settlements/settlement262-en","year":1999,"type":"Outpost"},"geometry":{"type":"Point","coordinates":[34.96813687,31.37103185]}},{"type":"Feature","properties":{"name":"Mevo'ot Jericho","possession":"je","url":"https://peacenow.org.il/en/settlements/settlement275-en","year":1999,"type":"Settlement"},"geometry":{"type":"Point","coordinates":[35.42024025,31.90612541]}},{"type":"Feature","properties":{"name":"Magen Dan","possession":"je","url":"https://peacenow.org.il/en/settlements/settlement276-en","year":1999,"type":"Outpost"},"geometry":{"type":"Point","coordinates":[35.02105128,32.10926951]}},{"type":"Feature","properties":{"name":"Ma'ale Hagit","possession":"je","url":"https://peacenow.org.il/en/settlements/settlement282-en","year":1999,"type":"Outpost"},"geometry":{"type":"Point","coordinates":[35.33750812,31.85140468]}},{"type":"Feature","properties":{"name":"Ma'aleh Shlomo","possession":"je","url":"https://peacenow.org.il/en/settlements/settlement285-en","year":1999,"type":"Outpost"},"geometry":{"type":"Point","coordinates":[35.34351963,31.94933209]}},{"type":"Feature","properties":{"name":"Mitzpeh Danny","possession":"je","url":"https://peacenow.org.il/en/settlements/settlement287-en","year":1999,"type":"Outpost"},"geometry":{"type":"Point","coordinates":[35.31496169,31.88092813]}},{"type":"Feature","properties":{"name":"Sneh Ya'akov","possession":"je","url":"https://peacenow.org.il/en/settlements/settlement304-en","year":1999,"type":"Outpost"},"geometry":{"type":"Point","coordinates":[35.26264821,32.17808334]}},{"type":"Feature","properties":{"name":"Sansana","possession":"je","url":"https://peacenow.org.il/en/settlements/settlement305-en","year":1999,"type":"Settlement"},"geometry":{"type":"Point","coordinates":[34.90281853,31.36350509]}},{"type":"Feature","properties":{"name":"Palgei Mayim","possession":"je","url":"https://peacenow.org.il/en/settlements/settlement310-en","year":1999,"type":"Outpost"},"geometry":{"type":"Point","coordinates":[35.27459897,32.08760173]}},{"type":"Feature","properties":{"name":"Skali's Farm","possession":"je","url":"https://peacenow.org.il/en/settlements/settlement329-en","year":1999,"type":"Outpost"},"geometry":{"type":"Point","coordinates":[35.3699207,32.21409499]}},{"type":"Feature","properties":{"name":"Negohot","possession":"je","url":"https://peacenow.org.il/en/settlements/settlement82-en","year":1999,"type":"Settlement"},"geometry":{"type":"Point","coordinates":[34.98052341,31.49391797]}},{"type":"Feature","properties":{"name":"Esh Kodesh","possession":"je","url":"https://peacenow.org.il/en/settlements/settlement229-en","year":2000,"type":"Outpost"},"geometry":{"type":"Point","coordinates":[35.32709834,32.06167041]}},{"type":"Feature","properties":{"name":"Sheikh Jarrah Settlement","possession":"je","url":"https://peacenow.org.il/en/settlements/settlement1040-en","year":2001,"type":"Settlement"},"geometry":{"type":"Point","coordinates":[35.25182104,31.76255544]}},{"type":"Feature","properties":{"name":"Yehuda Farm 2","possession":"je","url":"https://peacenow.org.il/en/settlements/settlement1141-en","year":2001,"type":"Agriculture Outpost"},"geometry":{"type":"Point","coordinates":[35.0031732,31.38696869]}},{"type":"Feature","properties":{"name":"Rotem","possession":"je","url":"https://peacenow.org.il/en/settlements/settlement122-en","year":2001,"type":"Settlement"},"geometry":{"type":"Point","coordinates":[35.51928062,32.33625295]}},{"type":"Feature","properties":{"name":"Avigayil","possession":"je","url":"https://peacenow.org.il/en/settlements/settlement221-en","year":2001,"type":"Outpost"},"geometry":{"type":"Point","coordinates":[35.14099604,31.40369577]}},{"type":"Feature","properties":{"name":"Beit El East","possession":"je","url":"https://peacenow.org.il/en/settlements/settlement231-en","year":2001,"type":"Outpost"},"geometry":{"type":"Point","coordinates":[35.23399158,31.93955922]}},{"type":"Feature","properties":{"name":"Jabel Artis","possession":"je","url":"https://peacenow.org.il/en/settlements/settlement237-en","year":2001,"type":"Outpost"},"geometry":{"type":"Point","coordinates":[35.23288987,31.94689906]}},{"type":"Feature","properties":{"name":"Hill 725","possession":"je","url":"https://peacenow.org.il/en/settlements/settlement238-en","year":2001,"type":"Outpost"},"geometry":{"type":"Point","coordinates":[35.24037304,32.15884593]}},{"type":"Feature","properties":{"name":"Givat Hatamar","possession":"je","url":"https://peacenow.org.il/en/settlements/settlement248-en","year":2001,"type":"Neighborhood"},"geometry":{"type":"Point","coordinates":[35.16576305,31.67963982]}},{"type":"Feature","properties":{"name":"Derech Ha'avot","possession":"je","url":"https://peacenow.org.il/en/settlements/settlement250-en","year":2001,"type":"Outpost"},"geometry":{"type":"Point","coordinates":[35.13627293,31.66607747]}},{"type":"Feature","properties":{"name":"Zayit Ra'anan","possession":"je","url":"https://peacenow.org.il/en/settlements/settlement259-en","year":2001,"type":"Outpost legalized as a neighborhood"},"geometry":{"type":"Point","coordinates":[35.11789861,31.95653381]}},{"type":"Feature","properties":{"name":"Yair Farm","possession":"je","url":"https://peacenow.org.il/en/settlements/settlement261-en","year":2001,"type":"Outpost"},"geometry":{"type":"Point","coordinates":[35.10445336,32.14483142]}},{"type":"Feature","properties":{"name":"Maon Farm","possession":"je","url":"https://peacenow.org.il/en/settlements/settlement263-en","year":2001,"type":"Outpost"},"geometry":{"type":"Point","coordinates":[35.16088076,31.40874756]}},{"type":"Feature","properties":{"name":"Heruti","possession":"je","url":"https://peacenow.org.il/en/settlements/settlement266-en","year":2001,"type":"Outpost"},"geometry":{"type":"Point","coordinates":[35.18493652,31.83260644]}},{"type":"Feature","properties":{"name":"Kfar Tapuah West","possession":"je","url":"https://peacenow.org.il/en/settlements/settlement271-en","year":2001,"type":"Outpost"},"geometry":{"type":"Point","coordinates":[35.23856414,32.11817246]}},{"type":"Feature","properties":{"name":"Mul Nevo","possession":"je","url":"https://peacenow.org.il/en/settlements/settlement278-en","year":2001,"type":"Outpost"},"geometry":{"type":"Point","coordinates":[35.50725808,31.82130128]}},{"type":"Feature","properties":{"name":"Ma'ale Efrayim Preparatory","possession":"je","url":"https://peacenow.org.il/en/settlements/settlement280-en","year":2001,"type":"Other"},"geometry":{"type":"Point","coordinates":[35.39370238,32.07020301]}},{"type":"Feature","properties":{"name":"Maoz Zvi","possession":"je","url":"https://peacenow.org.il/en/settlements/settlement281-en","year":2001,"type":"Outpost"},"geometry":{"type":"Point","coordinates":[35.16518848,32.42487998]}},{"type":"Feature","properties":{"name":"Mitzpe Ha'ai","possession":"je","url":"https://peacenow.org.il/en/settlements/settlement288-en","year":2001,"type":"Outpost"},"geometry":{"type":"Point","coordinates":[35.22985079,31.89633819]}},{"type":"Feature","properties":{"name":"Mizpe Jericho North East","possession":"je","url":"https://peacenow.org.il/en/settlements/settlement291-en","year":2001,"type":"Outpost"},"geometry":{"type":"Point","coordinates":[35.40189692,31.82281807]}},{"type":"Feature","properties":{"name":"Mitzpe Kramim","possession":"je","url":"https://peacenow.org.il/en/settlements/settlement292-en","year":2001,"type":"Outpost"},"geometry":{"type":"Point","coordinates":[35.35755789,31.95711271]}},{"type":"Feature","properties":{"name":"Merom Ayalon","possession":"je","url":"https://peacenow.org.il/en/settlements/settlement294-en","year":2001,"type":"Evicted Outpost"},"geometry":{"type":"Point","coordinates":[35.04481758,31.85300981]}},{"type":"Feature","properties":{"name":"Old Massu'ot Itzhak","possession":"je","url":"https://peacenow.org.il/en/settlements/settlement295-en","year":2001,"type":"Outpost"},"geometry":{"type":"Point","coordinates":[35.10883217,31.66000982]}},{"type":"Feature","properties":{"name":"Neve Erez","possession":"je","url":"https://peacenow.org.il/en/settlements/settlement297-en","year":2001,"type":"Outpost"},"geometry":{"type":"Point","coordinates":[35.31180565,31.86513521]}},{"type":"Feature","properties":{"name":"Susiya North West","possession":"je","url":"https://peacenow.org.il/en/settlements/settlement303-en","year":2001,"type":"Outpost"},"geometry":{"type":"Point","coordinates":[35.11035017,31.39512299]}},{"type":"Feature","properties":{"name":"Tzur Shalem","possession":"je","url":"https://peacenow.org.il/en/settlements/settlement312-en","year":2001,"type":"Outpost"},"geometry":{"type":"Point","coordinates":[35.09722001,31.60606744]}},{"type":"Feature","properties":{"name":"Tko'a B-C","possession":"je","url":"https://peacenow.org.il/en/settlements/settlement318-en","year":2001,"type":"Outpost"},"geometry":{"type":"Point","coordinates":[35.23151895,31.64366638]}},{"type":"Feature","properties":{"name":"Elmatan","possession":"je","url":"https://peacenow.org.il/en/settlements/settlement228-en","year":2002,"type":"Outpost legalized as a neighborhood"},"geometry":{"type":"Point","coordinates":[35.07464963,32.1556124]}},{"type":"Feature","properties":{"name":"Ancient Susiya Synagogue","possession":"je","url":"https://peacenow.org.il/en/settlements/settlement230-en","year":2002,"type":"Outpost"},"geometry":{"type":"Point","coordinates":[35.10403557,31.40618799]}},{"type":"Feature","properties":{"name":"Bat Ayin West","possession":"je","url":"https://peacenow.org.il/en/settlements/settlement236-en","year":2002,"type":"Outpost"},"geometry":{"type":"Point","coordinates":[35.09233433,31.66250349]}},{"type":"Feature","properties":{"name":"Givat Assaf","possession":"je","url":"https://peacenow.org.il/en/settlements/settlement244-en","year":2002,"type":"Outpost"},"geometry":{"type":"Point","coordinates":[35.24798321,31.91151946]}},{"type":"Feature","properties":{"name":"Givat Sal'it","possession":"je","url":"https://peacenow.org.il/en/settlements/settlement249-en","year":2002,"type":"Outpost"},"geometry":{"type":"Point","coordinates":[35.51079632,32.36398456]}},{"type":"Feature","properties":{"name":"Habayit Ha'adom","possession":"je","url":"https://peacenow.org.il/en/settlements/settlement251-en","year":2002,"type":"Other"},"geometry":{"type":"Point","coordinates":[35.33813664,32.04636937]}},{"type":"Feature","properties":{"name":"Hakaron","possession":"je","url":"https://peacenow.org.il/en/settlements/settlement256-en","year":2002,"type":"Outpost"},"geometry":{"type":"Point","coordinates":[35.28032623,32.06999078]}},{"type":"Feature","properties":{"name":"Haroeh","possession":"je","url":"https://peacenow.org.il/en/settlements/settlement258-en","year":2002,"type":"Outpost"},"geometry":{"type":"Point","coordinates":[35.26291653,32.05418538]}},{"type":"Feature","properties":{"name":"Gilad Farm","possession":"je","url":"https://peacenow.org.il/en/settlements/settlement260-en","year":2002,"type":"Outpost"},"geometry":{"type":"Point","coordinates":[35.18166776,32.19876061]}},{"type":"Feature","properties":{"name":"Kochav Ya'akov West","possession":"je","url":"https://peacenow.org.il/en/settlements/settlement270-en","year":2002,"type":"Outpost"},"geometry":{"type":"Point","coordinates":[35.23406378,31.88363467]}},{"type":"Feature","properties":{"name":"Karmei Doron","possession":"je","url":"https://peacenow.org.il/en/settlements/settlement272-en","year":2002,"type":"Outpost"},"geometry":{"type":"Point","coordinates":[35.12929158,32.28901912]}},{"type":"Feature","properties":{"name":"Migron","possession":"je","url":"https://peacenow.org.il/en/settlements/settlement277-en","year":2002,"type":"Evicted Outpost"},"geometry":{"type":"Point","coordinates":[35.27094301,31.89075943]}},{"type":"Feature","properties":{"name":"Ma'ale Rehav'am","possession":"je","url":"https://peacenow.org.il/en/settlements/settlement284-en","year":2002,"type":"Outpost"},"geometry":{"type":"Point","coordinates":[35.25761669,31.6500163]}},{"type":"Feature","properties":{"name":"Mizpe Yitzhar","possession":"je","url":"https://peacenow.org.il/en/settlements/settlement290-en","year":2002,"type":"Outpost"},"geometry":{"type":"Point","coordinates":[35.24966536,32.15727827]}},{"type":"Feature","properties":{"name":"Mitzpe Lachish (Givat Habooster)","possession":"je","url":"https://peacenow.org.il/en/settlements/settlement293-en","year":2002,"type":"Outpost"},"geometry":{"type":"Point","coordinates":[34.97206171,31.49643324]}},{"type":"Feature","properties":{"name":"Neve Daniel North","possession":"je","url":"https://peacenow.org.il/en/settlements/settlement298-en","year":2002,"type":"Outpost"},"geometry":{"type":"Point","coordinates":[35.14754521,31.69309042]}},{"type":"Feature","properties":{"name":"Nofei Nehemia","possession":"je","url":"https://peacenow.org.il/en/settlements/settlement301-en","year":2002,"type":"Outpost"},"geometry":{"type":"Point","coordinates":[35.23710639,32.09839486]}},{"type":"Feature","properties":{"name":"Asa'el","possession":"je","url":"https://peacenow.org.il/en/settlements/settlement309-en","year":2002,"type":"Outpost"},"geometry":{"type":"Point","coordinates":[35.04327623,31.37394849]}},{"type":"Feature","properties":{"name":"Pnei Kedem","possession":"je","url":"https://peacenow.org.il/en/settlements/settlement311-en","year":2002,"type":"Settlement"},"geometry":{"type":"Point","coordinates":[35.19499313,31.58937163]}},{"type":"Feature","properties":{"name":"Ramat Gilad","possession":"je","url":"https://peacenow.org.il/en/settlements/settlement315-en","year":2002,"type":"Outpost"},"geometry":{"type":"Point","coordinates":[35.11251665,32.18018902]}},{"type":"Feature","properties":{"name":"Tko'a D","possession":"je","url":"https://peacenow.org.il/en/settlements/settlement319-en","year":2002,"type":"Outpost"},"geometry":{"type":"Point","coordinates":[35.23692753,31.63777905]}},{"type":"Feature","properties":{"name":"Hill 468","possession":"je","url":"https://peacenow.org.il/en/settlements/settlement328-en","year":2002,"type":"Outpost"},"geometry":{"type":"Point","coordinates":[35.31414169,31.81951123]}},{"type":"Feature","properties":{"name":"Shaked Farm","possession":"je","url":"https://peacenow.org.il/en/settlements/settlement331-en","year":2002,"type":"Outpost"},"geometry":{"type":"Point","coordinates":[35.24159383,32.16182978]}},{"type":"Feature","properties":{"name":"Shkhunat Gal","possession":"je","url":"https://peacenow.org.il/en/settlements/settlement350-en","year":2002,"type":"Outpost"},"geometry":{"type":"Point","coordinates":[35.12650946,31.52407366]}},{"type":"Feature","properties":{"name":"Emek Tsurim Park","possession":"je","url":"https://peacenow.org.il/en/settlements/settlement1041-en","year":2003,"type":"Other"},"geometry":{"type":"Point","coordinates":[35.24291186,31.78828238]}},{"type":"Feature","properties":{"name":"Kochav Ya'akov East","possession":"je","url":"https://peacenow.org.il/en/settlements/settlement269-en","year":2003,"type":"Outpost"},"geometry":{"type":"Point","coordinates":[35.25233754,31.87798306]}},{"type":"Feature","properties":{"name":"Mitzpe Eshtamoa","possession":"je","url":"https://peacenow.org.il/en/settlements/settlement286-en","year":2003,"type":"Outpost legalized as a neighborhood"},"geometry":{"type":"Point","coordinates":[35.01543539,31.3925738]}},{"type":"Feature","properties":{"name":"Kida","possession":"je","url":"https://peacenow.org.il/en/settlements/settlement313-en","year":2003,"type":"Outpost"},"geometry":{"type":"Point","coordinates":[35.33961132,32.04833437]}},{"type":"Feature","properties":{"name":"Nof Zion Jabel Mukaber","possession":"je","url":"https://peacenow.org.il/en/settlements/settlement1050-en","year":2004,"type":"Settlement"},"geometry":{"type":"Point","coordinates":[35.24276452,31.75310468]}},{"type":"Feature","properties":{"name":"Bnei Adam","possession":"je","url":"https://peacenow.org.il/en/settlements/settlement232-en","year":2004,"type":"Outpost"},"geometry":{"type":"Point","coordinates":[35.29939512,31.84570524]}},{"type":"Feature","properties":{"name":"Mishpatei Aretz Inst.","possession":"je","url":"https://peacenow.org.il/en/settlements/settlement279-en","year":2004,"type":"Outpost"},"geometry":{"type":"Point","coordinates":[35.2516799,31.93946043]}},{"type":"Feature","properties":{"name":"Ofra North East","possession":"je","url":"https://peacenow.org.il/en/settlements/settlement308-en","year":2004,"type":"Outpost"},"geometry":{"type":"Point","coordinates":[35.26782576,31.95834638]}},{"type":"Feature","properties":{"name":"Omer Farm","possession":"je","url":"https://peacenow.org.il/en/settlements/settlement264-en","year":2005,"type":"Outpost"},"geometry":{"type":"Point","coordinates":[35.42802952,31.92830521]}},{"type":"Feature","properties":{"name":"E1","possession":"je","url":"https://peacenow.org.il/en/settlements/settlement1039-en","year":2006,"type":"Other"},"geometry":{"type":"Point","coordinates":[35.27674244,31.79216985]}},{"type":"Feature","properties":{"name":"Peace Forest","possession":"je","url":"https://peacenow.org.il/en/settlements/settlement1043-en","year":2006,"type":"Other"},"geometry":{"type":"Point","coordinates":[35.22751392,31.76055116]}},{"type":"Feature","properties":{"name":"A-Tur Settlement","possession":"je","url":"https://peacenow.org.il/en/settlements/settlement1044-en","year":2006,"type":"Settlement"},"geometry":{"type":"Point","coordinates":[35.24300846,31.77804051]}},{"type":"Feature","properties":{"name":"Eretz Haayalim","possession":"je","url":"https://peacenow.org.il/en/settlements/settlement1099-en","year":2007,"type":"Tourism"},"geometry":{"type":"Point","coordinates":[35.11286992,31.66485029]}},{"type":"Feature","properties":{"name":"Giv'at Se'ev Agan HaAyalot","possession":"je","url":"https://peacenow.org.il/en/settlements/settlement332-en","year":2008,"type":"Neighborhood"},"geometry":{"type":"Point","coordinates":[35.14717968,31.86353788]}},{"type":"Feature","properties":{"name":"Maskiyot","possession":"je","url":"https://peacenow.org.il/en/settlements/settlement80-en","year":2008,"type":"Settlement"},"geometry":{"type":"Point","coordinates":[35.50283128,32.31734775]}},{"type":"Feature","properties":{"name":"Kashuela Farm","possession":"je","url":"https://peacenow.org.il/en/settlements/settlement1066-en","year":2012,"type":"Outpost"},"geometry":{"type":"Point","coordinates":[35.10212134,31.67555083]}},{"type":"Feature","properties":{"name":"Khan Eretz Hamirdafim","possession":"je","url":"https://peacenow.org.il/en/settlements/settlement1070-en","year":2012,"type":"Outpost"},"geometry":{"type":"Point","coordinates":[35.35634577,31.82055815]}},{"type":"Feature","properties":{"name":"Tene Yarok Farm","possession":"je","url":"https://peacenow.org.il/en/settlements/settlement1155-en","year":2012,"type":"Outpost"},"geometry":{"type":"Point","coordinates":[35.515614,32.336535]}},{"type":"Feature","properties":{"name":"Migron HaHadasha","possession":"je","url":"https://peacenow.org.il/en/settlements/settlement335-en","year":2012,"type":"Settlement"},"geometry":{"type":"Point","coordinates":[35.25891124,31.87433117]}},{"type":"Feature","properties":{"name":"Kerem Reim","possession":"je","url":"https://peacenow.org.il/en/settlements/settlement339-en","year":2012,"type":"Settlement"},"geometry":{"type":"Point","coordinates":[35.13737889,31.95835425]}},{"type":"Feature","properties":{"name":"Nahalat Yossef","possession":"je","url":"https://peacenow.org.il/en/settlements/settlement340-en","year":2012,"type":"Outpost"},"geometry":{"type":"Point","coordinates":[35.34951926,32.22431699]}},{"type":"Feature","properties":{"name":"Tzofim North","possession":"je","url":"https://peacenow.org.il/en/settlements/settlement356-en","year":2012,"type":"Outpost"},"geometry":{"type":"Point","coordinates":[35.01326145,32.20342948]}},{"type":"Feature","properties":{"name":"Leshem","possession":"je","url":"https://peacenow.org.il/en/settlements/settlement1057-en","year":2013,"type":"Settlement"},"geometry":{"type":"Point","coordinates":[35.05140001,32.06850633]}},{"type":"Feature","properties":{"name":"Brosh","possession":"je","url":"https://peacenow.org.il/en/settlements/settlement1059-en","year":2013,"type":"Outpost"},"geometry":{"type":"Point","coordinates":[35.54152723,32.31937701]}},{"type":"Feature","properties":{"name":"Maale Amos West","possession":"je","url":"https://peacenow.org.il/en/settlements/settlement1064-en","year":2013,"type":"Outpost"},"geometry":{"type":"Point","coordinates":[35.21673926,31.59896136]}},{"type":"Feature","properties":{"name":"Hashkedim Farm","possession":"je","url":"https://peacenow.org.il/en/settlements/settlement1117-en","year":2013,"type":"Outpost"},"geometry":{"type":"Point","coordinates":[35.33769054,32.22692808]}},{"type":"Feature","properties":{"name":"Barak Farm","possession":"je","url":"https://peacenow.org.il/en/settlements/settlement1156-en","year":2013,"type":"Outpost"},"geometry":{"type":"Point","coordinates":[35.139071,31.384419]}},{"type":"Feature","properties":{"name":"Itamar 573","possession":"je","url":"https://peacenow.org.il/en/settlements/settlement327-en","year":2013,"type":"Outpost"},"geometry":{"type":"Point","coordinates":[35.37361524,32.14537193]}},{"type":"Feature","properties":{"name":"Oz Vegaon","possession":"je","url":"https://peacenow.org.il/en/settlements/settlement1089-en","year":2014,"type":"Outpost"},"geometry":{"type":"Point","coordinates":[35.1340287,31.64191005]}},{"type":"Feature","properties":{"name":"Maale Amos Industrial Area","possession":"je","url":"https://peacenow.org.il/en/settlements/settlement1058-en","year":2015,"type":"Industrial zone"},"geometry":{"type":"Point","coordinates":[35.21896804,31.61870641]}},{"type":"Feature","properties":{"name":"Shaharit","possession":"je","url":"https://peacenow.org.il/en/settlements/settlement1063-en","year":2015,"type":"Agriculture Outpost"},"geometry":{"type":"Point","coordinates":[35.07570791,32.08967033]}},{"type":"Feature","properties":{"name":"Haroe Haivri","possession":"je","url":"https://peacenow.org.il/en/settlements/settlement1065-en","year":2015,"type":"Outpost"},"geometry":{"type":"Point","coordinates":[35.32207004,31.81243671]}},{"type":"Feature","properties":{"name":"Malachei Hashalom","possession":"je","url":"https://peacenow.org.il/en/settlements/settlement1072-en","year":2015,"type":"Outpost"},"geometry":{"type":"Point","coordinates":[35.363627,32.0250069]}},{"type":"Feature","properties":{"name":"Beit Al-Baraka","possession":"je","url":"https://peacenow.org.il/en/settlements/settlement1113-en","year":2015,"type":"Tourism"},"geometry":{"type":"Point","coordinates":[35.13094121,31.63143687]}},{"type":"Feature","properties":{"name":"Shirat Haasabim","possession":"je","url":"https://peacenow.org.il/en/settlements/settlement1068-en","year":2016,"type":"Outpost"},"geometry":{"type":"Point","coordinates":[35.50437092,32.36500889]}},{"type":"Feature","properties":{"name":"Um Zuka","possession":"je","url":"https://peacenow.org.il/en/settlements/settlement1069-en","year":2016,"type":"Outpost"},"geometry":{"type":"Point","coordinates":[35.5198886,32.2900597]}},{"type":"Feature","properties":{"name":"Amihai","possession":"je","url":"https://peacenow.org.il/en/settlements/settlement1062-en","year":2017,"type":"Settlement"},"geometry":{"type":"Point","coordinates":[35.3285931,32.04549804]}},{"type":"Feature","properties":{"name":"Kedem Arava","possession":"je","url":"https://peacenow.org.il/en/settlements/settlement1067-en","year":2017,"type":"Outpost"},"geometry":{"type":"Point","coordinates":[35.50015733,31.80666214]}},{"type":"Feature","properties":{"name":"Neve Achi","possession":"je","url":"https://peacenow.org.il/en/settlements/settlement1073-en","year":2017,"type":"Outpost"},"geometry":{"type":"Point","coordinates":[35.13196008,32.00935378]}},{"type":"Feature","properties":{"name":"Shabtai's Farm","possession":"je","url":"https://peacenow.org.il/en/settlements/settlement1074-en","year":2017,"type":"Outpost"},"geometry":{"type":"Point","coordinates":[34.96744351,31.36864351]}},{"type":"Feature","properties":{"name":"Pnei Kedem Farm","possession":"je","url":"https://peacenow.org.il/en/settlements/settlement1088-en","year":2017,"type":"Outpost"},"geometry":{"type":"Point","coordinates":[35.199631,31.585745]}},{"type":"Feature","properties":{"name":"Jordan Valley Motor Park","possession":"je","url":"https://peacenow.org.il/en/settlements/settlement1100-en","year":2017,"type":"Tourism"},"geometry":{"type":"Point","coordinates":[35.45255407,32.05315483]}},{"type":"Feature","properties":{"name":"Adorayim","possession":"je","url":"https://peacenow.org.il/en/settlements/settlement1132-en","year":2017,"type":"Outpost"},"geometry":{"type":"Point","coordinates":[35.04266155,31.48400791]}},{"type":"Feature","properties":{"name":"Ramat Migron","possession":"je","url":"https://peacenow.org.il/en/settlements/settlement1157-en","year":2017,"type":"Outpost"},"geometry":{"type":"Point","coordinates":[35.269659,31.88652]}},{"type":"Feature","properties":{"name":"Pnei Hever South","possession":"je","url":"https://peacenow.org.il/en/settlements/settlement1076-en","year":2018,"type":"Outpost"},"geometry":{"type":"Point","coordinates":[35.16504164,31.47933273]}},{"type":"Feature","properties":{"name":"Mishol Hamaayan Farm","possession":"je","url":"https://peacenow.org.il/en/settlements/settlement1081-en","year":2018,"type":"Outpost"},"geometry":{"type":"Point","coordinates":[35.27293619,32.06936282]}},{"type":"Feature","properties":{"name":"Kochav Hashahar North East","possession":"je","url":"https://peacenow.org.il/en/settlements/settlement1082-en","year":2018,"type":"Outpost"},"geometry":{"type":"Point","coordinates":[35.36179671,31.96485877]}},{"type":"Feature","properties":{"name":"Ras Karkar Farm","possession":"je","url":"https://peacenow.org.il/en/settlements/settlement1083-en","year":2018,"type":"Outpost"},"geometry":{"type":"Point","coordinates":[35.09196841,31.93988751]}},{"type":"Feature","properties":{"name":"Negohot Farm","possession":"je","url":"https://peacenow.org.il/en/settlements/settlement1091-en","year":2018,"type":"Outpost"},"geometry":{"type":"Point","coordinates":[34.97329798,31.49179587]}},{"type":"Feature","properties":{"name":"Gadi Base","possession":"je","url":"https://peacenow.org.il/en/settlements/settlement1093-en","year":2018,"type":"Outpost"},"geometry":{"type":"Point","coordinates":[35.48672764,32.1230187]}},{"type":"Feature","properties":{"name":"Beintayim Farm","possession":"je","url":"https://peacenow.org.il/en/settlements/settlement1095-en","year":2018,"type":"Outpost"},"geometry":{"type":"Point","coordinates":[35.50895446,32.3182106]}},{"type":"Feature","properties":{"name":"Kida East","possession":"je","url":"https://peacenow.org.il/en/settlements/settlement1096-en","year":2018,"type":"Outpost"},"geometry":{"type":"Point","coordinates":[35.34657264,32.0517967]}},{"type":"Feature","properties":{"name":"Gilad Farm South","possession":"je","url":"https://peacenow.org.il/en/settlements/settlement1097-en","year":2018,"type":"Outpost"},"geometry":{"type":"Point","coordinates":[35.18223913,32.19108032]}},{"type":"Feature","properties":{"name":"Mevasser Industrial Area","possession":"je","url":"https://peacenow.org.il/en/settlements/settlement1098-en","year":2018,"type":"Industrial zone"},"geometry":{"type":"Point","coordinates":[35.12382522,31.55227082]}},{"type":"Feature","properties":{"name":"Asael West","possession":"je","url":"https://peacenow.org.il/en/settlements/settlement1103-en","year":2018,"type":"Outpost"},"geometry":{"type":"Point","coordinates":[35.0370993,31.37452147]}},{"type":"Feature","properties":{"name":"Goshen Farm Chemdat","possession":"je","url":"https://peacenow.org.il/en/settlements/settlement1123-en","year":2018,"type":"Outpost"},"geometry":{"type":"Point","coordinates":[35.529451,32.254823]}},{"type":"Feature","properties":{"name":"Meged Haaretz Farm","possession":"je","url":"https://peacenow.org.il/en/settlements/settlement1124-en","year":2018,"type":"Outpost"},"geometry":{"type":"Point","coordinates":[35.06614353,32.29296794]}},{"type":"Feature","properties":{"name":"Eretz Hatzvi Farm Nachliel","possession":"je","url":"https://peacenow.org.il/en/settlements/settlement1125-en","year":2018,"type":"Outpost"},"geometry":{"type":"Point","coordinates":[35.13834554,31.97188552]}},{"type":"Feature","properties":{"name":"Micha's Farm","possession":"je","url":"https://peacenow.org.il/en/settlements/settlement1127-en","year":2018,"type":"Outpost"},"geometry":{"type":"Point","coordinates":[35.34090773,31.97080228]}},{"type":"Feature","properties":{"name":"Geulat Zion","possession":"je","url":"https://peacenow.org.il/en/settlements/settlement353-en","year":2018,"type":"Other"},"geometry":{"type":"Point","coordinates":[35.323079,32.046158]}},{"type":"Feature","properties":{"name":"Givat Eitam","possession":"je","url":"https://peacenow.org.il/en/settlements/settlement357-en","year":2018,"type":"Outpost"},"geometry":{"type":"Point","coordinates":[35.19295487,31.67670655]}},{"type":"Feature","properties":{"name":"Tko'a E","possession":"je","url":"https://peacenow.org.il/en/settlements/settlement1094-en","year":2019,"type":"Outpost"},"geometry":{"type":"Point","coordinates":[35.24672615,31.6334505]}},{"type":"Feature","properties":{"name":"Nofei Prat South 324","possession":"je","url":"https://peacenow.org.il/en/settlements/settlement1101-en","year":2019,"type":"Outpost"},"geometry":{"type":"Point","coordinates":[35.31911051,31.80698359]}},{"type":"Feature","properties":{"name":"Susya East","possession":"je","url":"https://peacenow.org.il/en/settlements/settlement1102-en","year":2019,"type":"Outpost"},"geometry":{"type":"Point","coordinates":[35.12361056,31.39090989]}},{"type":"Feature","properties":{"name":"Mitzpe Hatora","possession":"je","url":"https://peacenow.org.il/en/settlements/settlement1104-en","year":2019,"type":"Outpost"},"geometry":{"type":"Point","coordinates":[35.3863814,31.82364371]}},{"type":"Feature","properties":{"name":"Rimonim North","possession":"je","url":"https://peacenow.org.il/en/settlements/settlement1106-en","year":2019,"type":"Outpost"},"geometry":{"type":"Point","coordinates":[35.34296622,31.94632226]}},{"type":"Feature","properties":{"name":"Maskiyot South","possession":"je","url":"https://peacenow.org.il/en/settlements/settlement1107-en","year":2019,"type":"Outpost"},"geometry":{"type":"Point","coordinates":[35.49117592,32.30564015]}},{"type":"Feature","properties":{"name":"Nili West","possession":"je","url":"https://peacenow.org.il/en/settlements/settlement1108-en","year":2019,"type":"Outpost"},"geometry":{"type":"Point","coordinates":[35.0408085,31.96112009]}},{"type":"Feature","properties":{"name":"Makhrour Outpost","possession":"je","url":"https://peacenow.org.il/en/settlements/settlement1109-en","year":2019,"type":"Outpost"},"geometry":{"type":"Point","coordinates":[35.16481245,31.71204975]}},{"type":"Feature","properties":{"name":"Halamish East","possession":"je","url":"https://peacenow.org.il/en/settlements/settlement1110-en","year":2019,"type":"Outpost"},"geometry":{"type":"Point","coordinates":[35.1456047,32.00755041]}},{"type":"Feature","properties":{"name":"Mitzpe Kramim East","possession":"je","url":"https://peacenow.org.il/en/settlements/settlement1111-en","year":2019,"type":"Outpost"},"geometry":{"type":"Point","coordinates":[35.36796144,31.95096564]}},{"type":"Feature","properties":{"name":"Kedar East Jabel Muntar","possession":"je","url":"https://peacenow.org.il/en/settlements/settlement1112-en","year":2019,"type":"Agriculture Outpost"},"geometry":{"type":"Point","coordinates":[35.31948183,31.73617221]}},{"type":"Feature","properties":{"name":"El Naveh Farm","possession":"je","url":"https://peacenow.org.il/en/settlements/settlement1114-en","year":2019,"type":"Outpost"},"geometry":{"type":"Point","coordinates":[35.11198626,32.43706827]}},{"type":"Feature","properties":{"name":"Neriya's Farm","possession":"je","url":"https://peacenow.org.il/en/settlements/settlement1116-en","year":2019,"type":"Outpost"},"geometry":{"type":"Point","coordinates":[35.3341083,31.92596723]}},{"type":"Feature","properties":{"name":"Asfar South","possession":"je","url":"https://peacenow.org.il/en/settlements/settlement1118-en","year":2019,"type":"Outpost"},"geometry":{"type":"Point","coordinates":[35.19319037,31.57878457]}},{"type":"Feature","properties":{"name":"Beit Dajan Farm","possession":"je","url":"https://peacenow.org.il/en/settlements/settlement1126-en","year":2019,"type":"Outpost"},"geometry":{"type":"Point","coordinates":[35.39193493,32.20546312]}},{"type":"Feature","properties":{"name":"Nahal Shilo Farm","possession":"je","url":"https://peacenow.org.il/en/settlements/settlement1130-en","year":2019,"type":"Outpost"},"geometry":{"type":"Point","coordinates":[35.28124059,32.04731502]}},{"type":"Feature","properties":{"name":"Adis Elem Farm","possession":"je","url":"https://peacenow.org.il/en/settlements/settlement1137-en","year":2019,"type":"Agriculture Outpost"},"geometry":{"type":"Point","coordinates":[34.986705,31.836244]}},{"type":"Feature","properties":{"name":"Yehuda Farm","possession":"je","url":"https://peacenow.org.il/en/settlements/settlement1138-en","year":2019,"type":"Agriculture Outpost"},"geometry":{"type":"Point","coordinates":[35.01479,31.392932]}},{"type":"Feature","properties":{"name":"Amihai South","possession":"je","url":"https://peacenow.org.il/en/settlements/settlement1115-en","year":2020,"type":"Outpost"},"geometry":{"type":"Point","coordinates":[35.32178211,32.03769466]}},{"type":"Feature","properties":{"name":"The New Farm of Micha","possession":"je","url":"https://peacenow.org.il/en/settlements/settlement1119-en","year":2020,"type":"Outpost"},"geometry":{"type":"Point","coordinates":[35.35480746,31.9857399]}},{"type":"Feature","properties":{"name":"Nof Avi","possession":"je","url":"https://peacenow.org.il/en/settlements/settlement1120-en","year":2020,"type":"Outpost"},"geometry":{"type":"Point","coordinates":[35.15128952,32.0892063]}},{"type":"Feature","properties":{"name":"Har Eival Outpost","possession":"je","url":"https://peacenow.org.il/en/settlements/settlement1121-en","year":2020,"type":"Evicted Outpost"},"geometry":{"type":"Point","coordinates":[35.27542818,32.22829596]}},{"type":"Feature","properties":{"name":"Um Zaituna","possession":"je","url":"https://peacenow.org.il/en/settlements/settlement1122-en","year":2020,"type":"Outpost"},"geometry":{"type":"Point","coordinates":[35.17674148,31.41691848]}},{"type":"Feature","properties":{"name":"Moshe's Farm","possession":"je","url":"https://peacenow.org.il/en/settlements/settlement1128-en","year":2020,"type":"Outpost"},"geometry":{"type":"Point","coordinates":[35.419305,32.213884]}},{"type":"Feature","properties":{"name":"Maaleh Ahuviya","possession":"je","url":"https://peacenow.org.il/en/settlements/settlement1129-en","year":2020,"type":"Outpost"},"geometry":{"type":"Point","coordinates":[35.33167466,31.94890153]}},{"type":"Feature","properties":{"name":"Rashash Farm","possession":"je","url":"https://peacenow.org.il/en/settlements/settlement1131-en","year":2020,"type":"Outpost"},"geometry":{"type":"Point","coordinates":[35.40320955,32.04205722]}},{"type":"Feature","properties":{"name":"Nahal Kana Farm","possession":"je","url":"https://peacenow.org.il/en/settlements/settlement1135-en","year":2020,"type":"Agriculture Outpost"},"geometry":{"type":"Point","coordinates":[35.06003537,32.13327365]}},{"type":"Feature","properties":{"name":"Pnei Kedem East Farm","possession":"je","url":"https://peacenow.org.il/en/settlements/settlement1139-en","year":2020,"type":"Agriculture Outpost"},"geometry":{"type":"Point","coordinates":[35.20046215,31.58474129]}},{"type":"Feature","properties":{"name":"Ahavat Olam Farm","possession":"je","url":"https://peacenow.org.il/en/settlements/settlement1165-en","year":2020,"type":"Agriculture Outpost"},"geometry":{"type":"Point","coordinates":[35.267985,31.955923]}},{"type":"Feature","properties":{"name":"Meitarim West","possession":"je","url":"https://peacenow.org.il/en/settlements/settlement1133-en","year":2021,"type":"Outpost"},"geometry":{"type":"Point","coordinates":[35.00044,31.36593]}},{"type":"Feature","properties":{"name":"Evyatar","possession":"je","url":"https://peacenow.org.il/en/settlements/settlement1136-en","year":2021,"type":"Outpost"},"geometry":{"type":"Point","coordinates":[35.27432383,32.11937764]}},{"type":"Feature","properties":{"name":"Karnei Reem","possession":"je","url":"https://peacenow.org.il/en/settlements/settlement1140-en","year":2021,"type":"Agriculture Outpost"},"geometry":{"type":"Point","coordinates":[35.113616,32.143118]}},{"type":"Feature","properties":{"name":"Eden Farm","possession":"je","url":"https://peacenow.org.il/en/settlements/settlement1142-en","year":2021,"type":"Agriculture Outpost"},"geometry":{"type":"Point","coordinates":[35.13904879,31.68730976]}},{"type":"Feature","properties":{"name":"Mevo'ot Yericho Farm","possession":"je","url":"https://peacenow.org.il/en/settlements/settlement1143-en","year":2021,"type":"Agriculture Outpost"},"geometry":{"type":"Point","coordinates":[35.42096,31.90976]}},{"type":"Feature","properties":{"name":"Pnei Kedem North Farm","possession":"je","url":"https://peacenow.org.il/en/settlements/settlement1144-en","year":2021,"type":"Agriculture Outpost"},"geometry":{"type":"Point","coordinates":[35.193271,31.600264]}},{"type":"Feature","properties":{"name":"Degel Hill Susya","possession":"je","url":"https://peacenow.org.il/en/settlements/settlement1145-en","year":2021,"type":"Outpost"},"geometry":{"type":"Point","coordinates":[35.10448,31.394806]}},{"type":"Feature","properties":{"name":"Oz Zion","possession":"je","url":"https://peacenow.org.il/en/settlements/settlement1158-en","year":2021,"type":"Outpost"},"geometry":{"type":"Point","coordinates":[35.249386,31.908277]}},{"type":"Feature","properties":{"name":"Yuliyus Farm","possession":"je","url":"https://peacenow.org.il/en/settlements/settlement1159-en","year":2021,"type":"Outpost"},"geometry":{"type":"Point","coordinates":[35.410722,32.142453]}},{"type":"Feature","properties":{"name":"Neriya's Farm East","possession":"je","url":"https://peacenow.org.il/en/settlements/settlement1160-en","year":2021,"type":"Outpost"},"geometry":{"type":"Point","coordinates":[35.380136,31.923731]}},{"type":"Feature","properties":{"name":"Ohavei Yah","possession":"je","url":"https://peacenow.org.il/en/settlements/settlement1161-en","year":2021,"type":"Outpost"},"geometry":{"type":"Point","coordinates":[35.087008,31.658426]}},{"type":"Feature","properties":{"name":"Hibat Haaretz Farm","possession":"je","url":"https://peacenow.org.il/en/settlements/settlement1164-en","year":2021,"type":"Agriculture Outpost"},"geometry":{"type":"Point","coordinates":[35.224889,31.599568]}},{"type":"Feature","properties":{"name":"Avia Farm","possession":"je","url":"https://peacenow.org.il/en/settlements/settlement1173-en","year":2021,"type":"Agriculture Outpost"},"geometry":{"type":"Point","coordinates":[35.11089999,32.45463999]}},{"type":"Feature","properties":{"name":"Givat Haktoret","possession":"je","url":"https://peacenow.org.il/en/settlements/settlement1162-en","year":2022,"type":"Outpost"},"geometry":{"type":"Point","coordinates":[35.288208,32.060998]}},{"type":"Feature","properties":{"name":"Ori Ad","possession":"je","url":"https://peacenow.org.il/en/settlements/settlement1166-en","year":2022,"type":"Outpost"},"geometry":{"type":"Point","coordinates":[35.159607,32.232762]}},{"type":"Feature","properties":{"name":"Mitzpeh Bikaa","possession":"je","url":"https://peacenow.org.il/en/settlements/settlement1167-en","year":2022,"type":"Outpost"},"geometry":{"type":"Point","coordinates":[35.453435,31.989258]}},{"type":"Feature","properties":{"name":"Shaar Shomron","possession":"je","url":"https://peacenow.org.il/en/settlements/settlement1169-en","year":2022,"type":"Settlement"},"geometry":{"type":"Point","coordinates":[35.0337725,32.1219039]}},{"type":"Feature","properties":{"name":"Nahalat Zvi","possession":"je","url":"https://peacenow.org.il/en/settlements/settlement1175-en","year":2022,"type":"Outpost"},"geometry":{"type":"Point","coordinates":[35.2988854,31.8705664]}},{"type":"Feature","properties":{"name":"Shorashim Farm","possession":"je","url":"https://peacenow.org.il/en/settlements/settlement1176-en","year":2022,"type":"Agriculture Outpost"},"geometry":{"type":"Point","coordinates":[35.1933143,31.4365737]}},{"type":"Feature","properties":{"name":"Avigail Farm","possession":"je","url":"https://peacenow.org.il/en/settlements/settlement1177-en","year":2022,"type":"Outpost"},"geometry":{"type":"Point","coordinates":[35.143441,31.4014192]}},{"type":"Feature","properties":{"name":"Avihai Farm","possession":"je","url":"https://peacenow.org.il/en/settlements/settlement1168-en","year":2023,"type":"Agriculture Outpost"},"geometry":{"type":"Point","coordinates":[35.040284,32.047914]}},{"type":"Feature","properties":{"name":"Ohana Farm","possession":"je","url":"https://peacenow.org.il/en/settlements/settlement1170-en","year":2023,"type":"Agriculture Outpost"},"geometry":{"type":"Point","coordinates":[35.366386,31.819521]}},{"type":"Feature","properties":{"name":"Bekaot South","possession":"je","url":"https://peacenow.org.il/en/settlements/settlement1171-en","year":2023,"type":"Outpost"},"geometry":{"type":"Point","coordinates":[35.45598093,32.24177108]}}]}